
    ___  __          __
   / _ )/ /_ _____  / /__
  / _  / / // / _ \/  '_/
 /____/_/\_, /_//_/_/\_\
        /___/ for Python v0.2.0 (Linux)

Welcome to the 4Runner MOC, powered by Raspberry Pi
Left Side LED Status: 1
Left Side LED Status: 0
Ditch Light LED Status: 1
Ditch Light LED Status: 0
Left Side LED Status: 1
Left Side LED Status: 0
Traceback (most recent call last):
  File "automoc_local.py", line 60, in <module>
    blynk.run()
  File "/usr/local/lib/python2.7/dist-packages/BlynkLib.py", line 246, in run
    data = self.conn.recv(self.buffin)
KeyboardInterrupt

    ___  __          __
   / _ )/ /_ _____  / /__
  / _  / / // / _ \/  '_/
 /____/_/\_, /_//_/_/\_\
        /___/ for Python v0.2.0 (Linux)

Welcome to the 4Runner MOC, powered by Raspberry Pi
$GNGGA,134044.00,4738.46946,N,12219.67946,W,2,12,0.71,12.2,M,-18.8,M,,0000*4F
$GNGGA,134059.00,4738.46964,N,12219.67949,W,2,12,0.71,13.3,M,-18.8,M,,0000*4C
$GNGGA,134114.00,4738.46997,N,12219.67936,W,2,12,0.64,12.8,M,-18.8,M,,0000*4E
Left Side LED Status: 1
Left Side LED Status: 0
$GNGGA,134129.00,4738.46995,N,12219.67926,W,2,12,0.66,12.3,M,-18.8,M,,0000*4A
$GNGGA,134144.00,4738.46968,N,12219.67928,W,2,12,0.66,11.8,M,-18.8,M,,0000*45
$GNGGA,134159.00,4738.46966,N,12219.67958,W,2,12,0.66,12.2,M,-18.8,M,,0000*49
$GNGGA,134214.00,4738.46972,N,12219.67954,W,2,12,0.66,13.3,M,-18.8,M,,0000*4A
$GNGGA,134229.00,4738.46987,N,12219.67951,W,2,12,0.69,14.4,M,-18.8,M,,0000*44
$GNGGA,134244.00,4738.46987,N,12219.68022,W,2,12,0.78,15.7,M,-18.8,M,,0000*4F
$GNGGA,134259.00,4738.46992,N,12219.68087,W,2,12,0.77,15.4,M,-18.8,M,,0000*44
$GNGGA,134314.00,4738.47024,N,12219.68052,W,2,12,0.86,14.4,M,-18.8,M,,0000*4E
$GNGGA,134329.00,4738.47037,N,12219.68067,W,2,12,0.84,12.7,M,-18.8,M,,0000*43
$GNGGA,134344.00,4738.47012,N,12219.68102,W,2,12,0.92,11.3,M,-18.8,M,,0000*4D
$GNGGA,134359.00,4738.46977,N,12219.68097,W,2,12,0.92,11.4,M,-18.8,M,,0000*40
$GNGGA,134414.00,4738.46944,N,12219.68109,W,2,12,0.85,12.2,M,-18.8,M,,0000*4B
$GNGGA,134429.00,4738.46907,N,12219.68165,W,2,12,0.70,14.3,M,-18.8,M,,0000*45
$GNGGA,134444.00,4738.46965,N,12219.68064,W,2,12,0.81,11.7,M,-18.8,M,,0000*45
$GNGGA,134459.00,4738.46995,N,12219.68007,W,2,12,0.74,11.1,M,-18.8,M,,0000*4F
$GNGGA,134514.00,4738.47077,N,12219.67825,W,2,12,0.73,8.2,M,-18.8,M,,0000*78
$GNGGA,134530.00,4738.47071,N,12219.67825,W,2,12,0.90,8.4,M,-18.8,M,,0000*73
$GNGGA,134545.00,4738.47014,N,12219.67892,W,2,12,0.90,10.3,M,-18.8,M,,0000*40
$GNGGA,134600.00,4738.46929,N,12219.68062,W,2,12,0.90,12.6,M,-18.8,M,,0000*4B
$GNGGA,134615.00,4738.46896,N,12219.68141,W,2,12,0.72,11.2,M,-18.8,M,,0000*41
$GNGGA,134630.00,4738.46912,N,12219.68159,W,2,12,0.72,9.4,M,-18.8,M,,0000*7D
$GNGGA,134645.00,4738.46928,N,12219.68155,W,2,12,0.73,8.9,M,-18.8,M,,0000*77
$GNGGA,134700.00,4738.46947,N,12219.68149,W,2,12,0.76,9.5,M,-18.8,M,,0000*7B
$GNGGA,134715.00,4738.46948,N,12219.68127,W,2,12,0.76,11.4,M,-18.8,M,,0000*40
$GNGGA,134730.00,4738.46943,N,12219.68128,W,2,12,0.73,12.6,M,-18.8,M,,0000*47
$GNGGA,134745.00,4738.46953,N,12219.68087,W,2,12,0.73,12.0,M,-18.8,M,,0000*46
$GNGGA,134800.00,4738.46919,N,12219.68155,W,2,12,0.73,13.7,M,-18.8,M,,0000*4E
$GNGGA,134815.00,4738.46911,N,12219.68199,W,2,12,0.73,14.9,M,-18.8,M,,0000*4B
$GNGGA,134830.00,4738.46912,N,12219.68192,W,2,12,0.73,15.5,M,-18.8,M,,0000*49
$GNGGA,134845.00,4738.46912,N,12219.68179,W,2,12,0.73,14.3,M,-18.8,M,,0000*49
$GNGGA,134900.00,4738.46906,N,12219.68167,W,2,12,0.73,13.2,M,-18.8,M,,0000*45
$GNGGA,134915.00,4738.46919,N,12219.68112,W,2,12,0.76,11.8,M,-18.8,M,,0000*40
$GNGGA,134930.00,4738.46924,N,12219.68080,W,2,12,0.76,10.8,M,-18.8,M,,0000*42
$GNGGA,134945.00,4738.46919,N,12219.68038,W,2,12,0.79,11.3,M,-18.8,M,,0000*48
$GNGGA,135000.00,4738.46916,N,12219.68048,W,2,12,0.83,11.9,M,-18.8,M,,0000*46
$GNGGA,135015.00,4738.46901,N,12219.68080,W,2,12,0.79,12.6,M,-18.8,M,,0000*49
$GNGGA,135031.00,4738.46845,N,12219.68111,W,2,12,0.78,14.1,M,-18.8,M,,0000*47
$GNGGA,135046.00,4738.46790,N,12219.68115,W,2,12,0.75,15.3,M,-18.8,M,,0000*4A
$GNGGA,135101.00,4738.46784,N,12219.68113,W,2,12,0.73,14.5,M,-18.8,M,,0000*4A
$GNGGA,135116.00,4738.46802,N,12219.68111,W,2,12,0.80,13.2,M,-18.8,M,,0000*43
$GNGGA,135131.00,4738.46845,N,12219.68128,W,2,12,0.80,12.8,M,-18.8,M,,0000*44
$GNGGA,135146.00,4738.46859,N,12219.68147,W,2,12,0.73,12.9,M,-18.8,M,,0000*4D
$GNGGA,135201.00,4738.46848,N,12219.68165,W,2,12,0.73,13.7,M,-18.8,M,,0000*42
$GNGGA,135216.00,4738.46874,N,12219.68240,W,2,12,0.70,14.9,M,-18.8,M,,0000*45
$GNGGA,135231.00,4738.46895,N,12219.68250,W,2,12,0.70,16.0,M,-18.8,M,,0000*45
$GNGGA,135246.00,4738.46898,N,12219.68231,W,2,12,0.70,17.5,M,-18.8,M,,0000*4B
$GNGGA,135301.00,4738.46919,N,12219.68180,W,2,12,0.70,19.5,M,-18.8,M,,0000*46
$GNGGA,135316.00,4738.46918,N,12219.68135,W,2,12,0.70,20.6,M,-18.8,M,,0000*46
$GNGGA,135331.00,4738.46904,N,12219.68084,W,2,12,0.70,20.3,M,-18.8,M,,0000*40
$GNGGA,135346.00,4738.46924,N,12219.68035,W,2,12,0.77,17.4,M,-18.8,M,,0000*4C
$GNGGA,135401.00,4738.46963,N,12219.68001,W,2,12,0.75,14.1,M,-18.8,M,,0000*48
$GNGGA,135416.00,4738.46986,N,12219.67983,W,2,12,0.79,11.1,M,-18.8,M,,0000*40
$GNGGA,135431.00,4738.47011,N,12219.67900,W,2,12,0.70,10.2,M,-18.8,M,,0000*43
$GNGGA,135446.00,4738.47034,N,12219.67902,W,2,12,0.71,8.2,M,-18.8,M,,0000*7E
$GNGGA,135501.00,4738.47069,N,12219.67883,W,2,12,0.72,7.4,M,-18.8,M,,0000*76
$GNGGA,135516.00,4738.47073,N,12219.67877,W,2,12,0.78,8.0,M,-18.8,M,,0000*71
$GNGGA,135532.00,4738.47057,N,12219.67898,W,2,12,0.76,10.0,M,-18.8,M,,0000*47
$GNGGA,135547.00,4738.47047,N,12219.67963,W,2,12,0.76,11.2,M,-18.8,M,,0000*42
$GNGGA,135602.00,4738.46998,N,12219.68028,W,2,12,0.76,14.1,M,-18.8,M,,0000*45
$GNGGA,135617.00,4738.46963,N,12219.68045,W,2,12,0.71,16.7,M,-18.8,M,,0000*4D
$GNGGA,135632.00,4738.46936,N,12219.68049,W,2,12,0.71,18.8,M,-18.8,M,,0000*47
$GNGGA,135647.00,4738.46906,N,12219.68057,W,2,12,0.71,19.5,M,-18.8,M,,0000*45
$GNGGA,135702.00,4738.46907,N,12219.68060,W,2,12,0.71,18.6,M,-18.8,M,,0000*42
$GNGGA,135717.00,4738.46901,N,12219.68092,W,2,12,0.76,16.9,M,-18.8,M,,0000*4B
$GNGGA,135732.00,4738.46905,N,12219.68151,W,2,12,0.88,15.1,M,-18.8,M,,0000*4C
$GNGGA,135747.00,4738.46922,N,12219.68150,W,2,12,0.80,13.9,M,-18.8,M,,0000*4C
$GNGGA,135802.00,4738.46912,N,12219.68084,W,2,12,0.78,15.8,M,-18.8,M,,0000*49
$GNGGA,135817.00,4738.46807,N,12219.68009,W,2,12,0.78,16.8,M,-18.8,M,,0000*4E
$GNGGA,135832.00,4738.46747,N,12219.68033,W,2,12,0.78,17.0,M,-18.8,M,,0000*42
$GNGGA,135847.00,4738.46775,N,12219.68062,W,2,12,0.78,15.8,M,-18.8,M,,0000*4F
$GNGGA,135902.00,4738.46761,N,12219.68072,W,2,12,0.84,16.5,M,-18.8,M,,0000*46
$GNGGA,135917.00,4738.46796,N,12219.68051,W,2,12,0.78,16.9,M,-18.8,M,,0000*44
$GNGGA,135932.00,4738.46826,N,12219.68033,W,2,12,0.78,17.7,M,-18.8,M,,0000*4C
$GNGGA,135947.00,4738.46894,N,12219.68041,W,2,12,0.78,16.3,M,-18.8,M,,0000*47
$GNGGA,140002.00,4738.46929,N,12219.68073,W,2,12,0.71,16.5,M,-18.8,M,,0000*44
$GNGGA,140018.00,4738.46890,N,12219.68081,W,2,12,0.71,19.2,M,-18.8,M,,0000*49
$GNGGA,140033.00,4738.46827,N,12219.68076,W,2,12,0.65,20.3,M,-18.8,M,,0000*4A
$GNGGA,140048.00,4738.46798,N,12219.68135,W,2,12,0.67,19.9,M,-18.8,M,,0000*49
$GNGGA,140103.00,4738.46747,N,12219.68171,W,2,12,0.66,18.8,M,-18.8,M,,0000*44
$GNGGA,140118.00,4738.46713,N,12219.68188,W,2,12,0.66,20.5,M,-18.8,M,,0000*4F
$GNGGA,140133.00,4738.46732,N,12219.68280,W,2,12,0.66,21.2,M,-18.8,M,,0000*48
$GNGGA,140148.00,4738.46761,N,12219.68354,W,2,12,0.68,19.7,M,-18.8,M,,0000*4A
$GNGGA,140203.00,4738.46768,N,12219.68394,W,2,12,0.72,17.5,M,-18.8,M,,0000*44
$GNGGA,140218.00,4738.46795,N,12219.68387,W,2,12,0.75,15.2,M,-18.8,M,,0000*4C
$GNGGA,140233.00,4738.46786,N,12219.68354,W,2,12,0.75,13.3,M,-18.8,M,,0000*4E
$GNGGA,140248.00,4738.46758,N,12219.68311,W,2,12,0.75,11.9,M,-18.8,M,,0000*48
$GNGGA,140303.00,4738.46774,N,12219.68276,W,2,12,0.75,11.6,M,-18.8,M,,0000*47
$GNGGA,140318.00,4738.46778,N,12219.68214,W,2,12,0.75,10.1,M,-18.8,M,,0000*43
$GNGGA,140333.00,4738.46799,N,12219.68142,W,2,12,0.70,12.6,M,-18.8,M,,0000*45
$GNGGA,140348.00,4738.46798,N,12219.68084,W,2,12,0.75,14.2,M,-18.8,M,,0000*44
$GNGGA,140403.00,4738.46809,N,12219.68059,W,2,12,0.70,15.1,M,-18.8,M,,0000*4C
$GNGGA,140418.00,4738.46787,N,12219.68059,W,2,12,0.70,17.9,M,-18.8,M,,0000*45
$GNGGA,140434.00,4738.46793,N,12219.68094,W,2,12,0.70,18.6,M,-18.8,M,,0000*4F
$GNGGA,140449.00,4738.46804,N,12219.68199,W,2,12,0.70,18.4,M,-18.8,M,,0000*4A
$GNGGA,140504.00,4738.46818,N,12219.68269,W,2,12,0.73,17.5,M,-18.8,M,,0000*4E
$GNGGA,140519.00,4738.46828,N,12219.68302,W,2,12,0.70,17.9,M,-18.8,M,,0000*42
$GNGGA,140534.00,4738.46843,N,12219.68297,W,2,12,0.73,17.4,M,-18.8,M,,0000*43
$GNGGA,140549.00,4738.46858,N,12219.68294,W,2,12,0.84,17.0,M,-18.8,M,,0000*4C
$GNGGA,140604.00,4738.46866,N,12219.68311,W,2,12,0.82,15.9,M,-18.8,M,,0000*4A
$GNGGA,140619.00,4738.46898,N,12219.68314,W,2,12,0.85,14.9,M,-18.8,M,,0000*44
$GNGGA,140634.00,4738.46931,N,12219.68261,W,2,12,0.75,13.8,M,-18.8,M,,0000*43
$GNGGA,140649.00,4738.46948,N,12219.68212,W,2,12,0.70,13.9,M,-18.8,M,,0000*47
$GNGGA,140704.00,4738.46960,N,12219.68171,W,2,12,0.70,15.6,M,-18.8,M,,0000*4A
Alarm Status: 1
Disabling Fuel Pump in 30 Seconds
Disabling Fuel Pump
$GNGGA,140735.00,4738.46915,N,12219.68114,W,2,12,0.75,17.9,M,-18.8,M,,0000*41
Alarm Status: 0
$GNGGA,140750.00,4738.46928,N,12219.68096,W,2,12,0.70,16.6,M,-18.8,M,,0000*4C
$GNGGA,140805.00,4738.46938,N,12219.68078,W,2,12,0.70,14.3,M,-18.8,M,,0000*45
$GNGGA,140820.00,4738.46937,N,12219.68098,W,2,12,0.70,15.0,M,-18.8,M,,0000*41
$GNGGA,140835.00,4738.46897,N,12219.68125,W,2,12,0.70,15.8,M,-18.8,M,,0000*41
$GNGGA,140850.00,4738.46861,N,12219.68159,W,2,12,0.70,15.1,M,-18.8,M,,0000*49
$GNGGA,140905.00,4738.46859,N,12219.68219,W,2,12,0.70,15.0,M,-18.8,M,,0000*45
$GNGGA,140920.00,4738.46867,N,12219.68229,W,2,12,0.70,16.5,M,-18.8,M,,0000*4A
$GNGGA,140935.00,4738.46879,N,12219.68184,W,2,12,0.77,17.1,M,-18.8,M,,0000*47
$GNGGA,140950.00,4738.46875,N,12219.68186,W,2,12,0.82,18.5,M,-18.8,M,,0000*4B
$GNGGA,141005.00,4738.46883,N,12219.68224,W,2,12,0.77,18.3,M,-18.8,M,,0000*4D
$GNGGA,141020.00,4738.46885,N,12219.68244,W,2,12,0.70,18.1,M,-18.8,M,,0000*4F
$GNGGA,141035.00,4738.46884,N,12219.68278,W,2,12,0.74,16.8,M,-18.8,M,,0000*46
$GNGGA,141050.00,4738.46884,N,12219.68289,W,2,12,0.74,15.8,M,-18.8,M,,0000*48
$GNGGA,141106.00,4738.46881,N,12219.68236,W,2,12,0.74,15.2,M,-18.8,M,,0000*41
$GNGGA,141121.00,4738.46873,N,12219.68184,W,2,12,0.84,12.7,M,-18.8,M,,0000*4E
$GNGGA,141136.00,4738.46863,N,12219.68139,W,2,12,0.74,12.4,M,-18.8,M,,0000*43
$GNGGA,141151.00,4738.46890,N,12219.68076,W,2,12,0.79,11.9,M,-18.8,M,,0000*47
$GNGGA,141206.00,4738.46908,N,12219.68123,W,2,12,0.75,10.1,M,-18.8,M,,0000*42
$GNGGA,141221.00,4738.46893,N,12219.68142,W,2,12,0.73,10.8,M,-18.8,M,,0000*4C
$GNGGA,141236.00,4738.46877,N,12219.68198,W,2,12,0.70,12.6,M,-18.8,M,,0000*48
$GNGGA,141251.00,4738.46867,N,12219.68211,W,2,12,0.70,15.0,M,-18.8,M,,0000*4B
$GNGGA,141306.00,4738.46859,N,12219.68141,W,2,12,0.74,15.8,M,-18.8,M,,0000*4F
$GNGGA,141321.00,4738.46883,N,12219.68029,W,2,12,0.70,14.7,M,-18.8,M,,0000*48
$GNGGA,141336.00,4738.46924,N,12219.67932,W,2,12,0.81,12.6,M,-18.8,M,,0000*47
$GNGGA,141351.00,4738.46931,N,12219.67979,W,2,12,0.75,12.0,M,-18.8,M,,0000*40
$GNGGA,141406.00,4738.46931,N,12219.67986,W,2,12,0.70,13.3,M,-18.8,M,,0000*42
$GNGGA,141421.00,4738.46978,N,12219.68042,W,2,12,0.74,11.5,M,-18.8,M,,0000*44
$GNGGA,141436.00,4738.47037,N,12219.68096,W,2,12,0.84,9.4,M,-18.8,M,,0000*7F
$GNGGA,141451.00,4738.47046,N,12219.68167,W,2,12,0.79,8.9,M,-18.8,M,,0000*79
$GNGGA,141506.00,4738.47021,N,12219.68122,W,2,12,0.95,10.5,M,-18.8,M,,0000*4D
$GNGGA,141521.00,4738.46986,N,12219.68089,W,2,12,0.95,11.1,M,-18.8,M,,0000*48
$GNGGA,141536.00,4738.46970,N,12219.68082,W,2,12,0.93,9.6,M,-18.8,M,,0000*74
$GNGGA,141551.00,4738.46939,N,12219.68025,W,2,12,0.93,8.9,M,-18.8,M,,0000*7B
$GNGGA,141607.00,4738.46939,N,12219.67980,W,2,12,0.95,8.6,M,-18.8,M,,0000*7B
$GNGGA,141622.00,4738.46980,N,12219.68033,W,2,12,0.93,8.7,M,-18.8,M,,0000*77
$GNGGA,141637.00,4738.46953,N,12219.68074,W,2,12,0.76,10.8,M,-18.8,M,,0000*43
$GNGGA,141652.00,4738.46918,N,12219.68077,W,2,12,0.73,12.6,M,-18.8,M,,0000*45
$GNGGA,141707.00,4738.46897,N,12219.68088,W,2,12,0.80,14.1,M,-18.8,M,,0000*4F
$GNGGA,141722.00,4738.46885,N,12219.68084,W,2,12,0.73,14.1,M,-18.8,M,,0000*4B
$GNGGA,141737.00,4738.46887,N,12219.68072,W,2,12,0.73,14.7,M,-18.8,M,,0000*42
$GNGGA,141752.00,4738.46881,N,12219.68061,W,2,12,0.73,14.3,M,-18.8,M,,0000*41
$GNGGA,141807.00,4738.46908,N,12219.68073,W,2,12,0.77,13.4,M,-18.8,M,,0000*49
$GNGGA,141822.00,4738.46943,N,12219.68096,W,2,12,0.77,13.3,M,-18.8,M,,0000*4D
$GNGGA,141837.00,4738.46970,N,12219.68137,W,2,12,0.77,12.3,M,-18.8,M,,0000*42
$GNGGA,141852.00,4738.46968,N,12219.68110,W,2,12,0.86,12.9,M,-18.8,M,,0000*49
$GNGGA,141907.00,4738.46974,N,12219.68082,W,2,12,0.86,13.7,M,-18.8,M,,0000*40
$GNGGA,141922.00,4738.46949,N,12219.68054,W,2,12,0.99,14.6,M,-18.8,M,,0000*4A
$GNGGA,141937.00,4738.46920,N,12219.68042,W,2,12,0.85,15.3,M,-18.8,M,,0000*4F
$GNGGA,141952.00,4738.46906,N,12219.68027,W,2,12,0.91,16.9,M,-18.8,M,,0000*47
$GNGGA,142007.00,4738.46905,N,12219.68052,W,2,12,0.79,17.0,M,-18.8,M,,0000*42
$GNGGA,142022.00,4738.46902,N,12219.68012,W,2,12,0.79,15.4,M,-18.8,M,,0000*40
$GNGGA,142037.00,4738.46920,N,12219.67954,W,2,12,0.79,13.5,M,-18.8,M,,0000*47
$GNGGA,142052.00,4738.46947,N,12219.67946,W,2,12,0.79,14.2,M,-18.8,M,,0000*46
$GNGGA,142108.00,4738.46982,N,12219.67980,W,2,12,0.97,12.3,M,-18.8,M,,0000*4C
$GNGGA,142123.00,4738.46997,N,12219.68045,W,2,12,0.88,11.8,M,-18.8,M,,0000*48
$GNGGA,142138.00,4738.46947,N,12219.68036,W,2,12,0.84,15.7,M,-18.8,M,,0000*4C
$GNGGA,142153.00,4738.46901,N,12219.68055,W,2,12,0.73,19.0,M,-18.8,M,,0000*45
$GNGGA,142208.00,4738.46853,N,12219.68083,W,2,12,0.73,19.9,M,-18.8,M,,0000*4C
$GNGGA,142223.00,4738.46808,N,12219.68187,W,2,12,0.83,19.6,M,-18.8,M,,0000*4E
$GNGGA,142238.00,4738.46768,N,12219.68208,W,2,12,0.89,19.6,M,-18.8,M,,0000*43
$GNGGA,142253.00,4738.46751,N,12219.68203,W,2,12,0.73,21.2,M,-18.8,M,,0000*45
$GNGGA,142308.00,4738.46767,N,12219.68190,W,2,12,0.71,21.7,M,-18.8,M,,0000*41
$GNGGA,142323.00,4738.46802,N,12219.68154,W,2,12,0.75,21.2,M,-18.8,M,,0000*4D
$GNGGA,142338.00,4738.46810,N,12219.68117,W,2,12,0.87,21.8,M,-18.8,M,,0000*44
$GNGGA,142353.00,4738.46836,N,12219.68106,W,2,12,0.78,21.5,M,-18.8,M,,0000*40
$GNGGA,142408.00,4738.46874,N,12219.68106,W,2,12,0.78,20.7,M,-18.8,M,,0000*4C
$GNGGA,142423.00,4738.46898,N,12219.68093,W,2,12,0.73,19.9,M,-18.8,M,,0000*45
$GNGGA,142438.00,4738.46871,N,12219.68092,W,2,12,0.74,20.8,M,-18.8,M,,0000*45
$GNGGA,142453.00,4738.46856,N,12219.68067,W,2,12,0.70,20.8,M,-18.8,M,,0000*43
$GNGGA,142508.00,4738.46856,N,12219.68068,W,2,12,0.70,20.6,M,-18.8,M,,0000*4D
$GNGGA,142523.00,4738.46814,N,12219.68097,W,2,12,0.70,22.1,M,-18.8,M,,0000*47
$GNGGA,142538.00,4738.46776,N,12219.68207,W,2,12,0.79,23.8,M,-18.8,M,,0000*4C
$GNGGA,142553.00,4738.46782,N,12219.68228,W,2,12,0.77,23.9,M,-18.8,M,,0000*48
$GNGGA,142609.00,4738.46802,N,12219.68186,W,2,12,0.70,23.9,M,-18.8,M,,0000*43
$GNGGA,142624.00,4738.46857,N,12219.68075,W,2,12,0.79,22.3,M,-18.8,M,,0000*43
$GNGGA,142639.00,4738.46904,N,12219.67971,W,2,12,0.83,20.8,M,-18.8,M,,0000*46
$GNGGA,142654.00,4738.46929,N,12219.67921,W,2,12,0.74,21.7,M,-18.8,M,,0000*41
$GNGGA,142709.00,4738.46960,N,12219.67854,W,2,12,0.77,20.9,M,-18.8,M,,0000*4A
$GNGGA,142724.00,4738.46992,N,12219.67784,W,2,12,0.83,18.0,M,-18.8,M,,0000*43
$GNGGA,142739.00,4738.47016,N,12219.67739,W,2,12,0.73,14.7,M,-18.8,M,,0000*49
$GNGGA,142754.00,4738.47004,N,12219.67781,W,2,12,0.73,12.9,M,-18.8,M,,0000*4A
$GNGGA,142809.00,4738.46984,N,12219.67874,W,2,12,0.77,13.1,M,-18.8,M,,0000*45
$GNGGA,142824.00,4738.46975,N,12219.67970,W,2,12,0.77,13.7,M,-18.8,M,,0000*47
$GNGGA,142839.00,4738.47008,N,12219.68041,W,2,12,0.73,11.1,M,-18.8,M,,0000*4D
$GNGGA,142854.00,4738.47026,N,12219.67999,W,2,12,0.73,7.9,M,-18.8,M,,0000*76
$GNGGA,142909.00,4738.47031,N,12219.68062,W,2,12,0.73,7.4,M,-18.8,M,,0000*76
$GNGGA,142924.00,4738.47028,N,12219.68145,W,2,12,0.73,6.7,M,-18.8,M,,0000*77
$GNGGA,142939.00,4738.47006,N,12219.68176,W,2,12,0.73,6.4,M,-18.8,M,,0000*74
$GNGGA,142954.00,4738.47023,N,12219.68155,W,2,12,0.73,5.1,M,-18.8,M,,0000*7F
$GNGGA,143009.00,4738.47056,N,12219.68109,W,2,12,0.82,3.8,M,-18.8,M,,0000*75
$GNGGA,143024.00,4738.47050,N,12219.68070,W,2,12,0.73,4.0,M,-18.8,M,,0000*72
$GNGGA,143039.00,4738.47036,N,12219.68005,W,2,12,0.73,5.3,M,-18.8,M,,0000*7E
$GNGGA,143054.00,4738.47028,N,12219.67956,W,2,12,0.73,6.5,M,-18.8,M,,0000*7F
$GNGGA,143110.00,4738.46979,N,12219.68028,W,2,12,0.73,8.8,M,-18.8,M,,0000*7E
$GNGGA,143125.00,4738.46921,N,12219.68112,W,2,12,0.73,10.7,M,-18.8,M,,0000*4B
$GNGGA,143140.00,4738.46856,N,12219.68238,W,2,12,0.73,13.0,M,-18.8,M,,0000*46
$GNGGA,143155.00,4738.46820,N,12219.68256,W,2,12,0.73,13.2,M,-18.8,M,,0000*49
$GNGGA,143210.00,4738.46798,N,12219.68254,W,2,12,0.73,13.5,M,-18.8,M,,0000*42
$GNGGA,143225.00,4738.46803,N,12219.68214,W,2,12,0.73,14.3,M,-18.8,M,,0000*4C
$GNGGA,143240.00,4738.46828,N,12219.68182,W,2,12,0.73,14.5,M,-18.8,M,,0000*4C
$GNGGA,143255.00,4738.46866,N,12219.68181,W,2,12,0.73,14.4,M,-18.8,M,,0000*40
$GNGGA,143310.00,4738.46915,N,12219.68164,W,2,12,0.73,13.2,M,-18.8,M,,0000*4F
$GNGGA,143325.00,4738.46959,N,12219.68136,W,2,12,0.73,12.5,M,-18.8,M,,0000*40
$GNGGA,143340.00,4738.47014,N,12219.68157,W,2,12,0.73,12.6,M,-18.8,M,,0000*46
$GNGGA,143355.00,4738.47033,N,12219.68178,W,2,12,0.73,14.3,M,-18.8,M,,0000*49
$GNGGA,143410.00,4738.47024,N,12219.68143,W,2,12,0.73,14.5,M,-18.8,M,,0000*47
$GNGGA,143425.00,4738.46988,N,12219.68112,W,2,12,0.73,13.9,M,-18.8,M,,0000*40
$GNGGA,143440.00,4738.46972,N,12219.68068,W,2,12,0.73,13.8,M,-18.8,M,,0000*4B
$GNGGA,143455.00,4738.46977,N,12219.68001,W,2,12,0.73,13.4,M,-18.8,M,,0000*49
$GNGGA,143510.00,4738.46949,N,12219.68010,W,2,12,0.73,13.7,M,-18.8,M,,0000*47
$GNGGA,143525.00,4738.46906,N,12219.68041,W,2,12,0.73,15.0,M,-18.8,M,,0000*4F
$GNGGA,143540.00,4738.46869,N,12219.68048,W,2,12,0.73,16.6,M,-18.8,M,,0000*48
$GNGGA,143555.00,4738.46860,N,12219.68019,W,2,12,0.73,17.5,M,-18.8,M,,0000*43
$GNGGA,143611.00,4738.46855,N,12219.68003,W,2,12,0.78,17.6,M,-18.8,M,,0000*45
$GNGGA,143626.00,4738.46867,N,12219.67985,W,2,12,0.78,17.3,M,-18.8,M,,0000*4D
$GNGGA,143641.00,4738.46886,N,12219.67988,W,2,12,0.78,16.3,M,-18.8,M,,0000*4F
$GNGGA,143656.00,4738.46883,N,12219.68070,W,2,12,0.78,15.7,M,-18.8,M,,0000*4A
$GNGGA,143711.00,4738.46862,N,12219.68165,W,2,12,0.82,15.9,M,-18.8,M,,0000*49
$GNGGA,143726.00,4738.46769,N,12219.68310,W,2,12,0.83,19.2,M,-18.8,M,,0000*4F
$GNGGA,143741.00,4738.46724,N,12219.68388,W,2,12,0.82,21.0,M,-18.8,M,,0000*4E
$GNGGA,143756.00,4738.46770,N,12219.68441,W,2,12,0.73,17.8,M,-18.8,M,,0000*48
$GNGGA,143811.00,4738.46836,N,12219.68494,W,2,12,0.79,14.5,M,-18.8,M,,0000*45
$GNGGA,143826.00,4738.46889,N,12219.68517,W,2,12,0.73,13.5,M,-18.8,M,,0000*42
$GNGGA,143841.00,4738.46871,N,12219.68491,W,2,12,0.80,14.5,M,-18.8,M,,0000*40
$GNGGA,143856.00,4738.46865,N,12219.68428,W,2,12,0.73,13.2,M,-18.8,M,,0000*4D
$GNGGA,143911.00,4738.46900,N,12219.68371,W,2,12,0.77,10.6,M,-18.8,M,,0000*45
$GNGGA,143926.00,4738.46905,N,12219.68418,W,2,12,0.84,10.0,M,-18.8,M,,0000*46
$GNGGA,143941.00,4738.46918,N,12219.68427,W,2,12,0.80,9.9,M,-18.8,M,,0000*72
$GNGGA,143956.00,4738.46908,N,12219.68378,W,2,12,0.73,11.4,M,-18.8,M,,0000*40
$GNGGA,144011.00,4738.46920,N,12219.68276,W,2,12,0.73,11.0,M,-18.8,M,,0000*4C
$GNGGA,144026.00,4738.46931,N,12219.68192,W,2,12,0.73,11.5,M,-18.8,M,,0000*44
$GNGGA,144041.00,4738.46911,N,12219.68129,W,2,12,0.70,12.6,M,-18.8,M,,0000*44
$GNGGA,144056.00,4738.46887,N,12219.68116,W,2,12,0.73,13.6,M,-18.8,M,,0000*42
$GNGGA,144112.00,4738.46863,N,12219.68136,W,2,12,0.74,15.2,M,-18.8,M,,0000*4E
$GNGGA,144127.00,4738.46836,N,12219.68164,W,2,12,0.70,16.1,M,-18.8,M,,0000*4B
$GNGGA,144142.00,4738.46828,N,12219.68179,W,2,12,0.79,15.3,M,-18.8,M,,0000*43
$GNGGA,144157.00,4738.46784,N,12219.68176,W,2,12,0.75,18.1,M,-18.8,M,,0000*42
$GNGGA,144212.00,4738.46752,N,12219.68066,W,2,12,0.88,21.1,M,-18.8,M,,0000*43
$GNGGA,144227.00,4738.46713,N,12219.68108,W,2,12,0.87,23.2,M,-18.8,M,,0000*47
$GNGGA,144242.00,4738.46678,N,12219.68162,W,2,12,0.75,24.5,M,-18.8,M,,0000*49
$GNGGA,144257.00,4738.46663,N,12219.68046,W,2,12,0.75,25.6,M,-18.8,M,,0000*42
$GNGGA,144312.00,4738.46626,N,12219.68143,W,2,12,0.89,25.2,M,-18.8,M,,0000*40
$GNGGA,144327.00,4738.46642,N,12219.68172,W,2,12,0.91,22.4,M,-18.8,M,,0000*4E
$GNGGA,144342.00,4738.46656,N,12219.68216,W,2,12,0.74,20.0,M,-18.8,M,,0000*44
$GNGGA,144357.00,4738.46655,N,12219.68132,W,2,12,0.74,21.0,M,-18.8,M,,0000*47
$GNGGA,144412.00,4738.46704,N,12219.68079,W,2,12,0.74,19.3,M,-18.8,M,,0000*42
$GNGGA,144427.00,4738.46804,N,12219.68145,W,2,12,0.74,15.5,M,-18.8,M,,0000*4F
$GNGGA,144442.00,4738.46902,N,12219.68257,W,2,12,0.74,12.3,M,-18.8,M,,0000*4A
$GNGGA,144457.00,4738.46888,N,12219.68295,W,2,12,0.74,13.9,M,-18.8,M,,0000*48
$GNGGA,144512.00,4738.46853,N,12219.68319,W,2,12,0.74,16.7,M,-18.8,M,,0000*40
$GNGGA,144527.00,4738.46844,N,12219.68339,W,2,12,0.81,19.6,M,-18.8,M,,0000*46
$GNGGA,144542.00,4738.46919,N,12219.68276,W,2,12,0.80,17.7,M,-18.8,M,,0000*48
$GNGGA,144557.00,4738.46987,N,12219.68150,W,2,12,0.80,15.5,M,-18.8,M,,0000*4C
$GNGGA,144613.00,4738.46940,N,12219.68118,W,2,12,0.80,17.9,M,-18.8,M,,0000*46
$GNGGA,144628.00,4738.46901,N,12219.68173,W,2,12,0.80,18.2,M,-18.8,M,,0000*42
$GNGGA,144643.00,4738.46875,N,12219.68179,W,2,12,0.80,18.2,M,-18.8,M,,0000*47
$GNGGA,144658.00,4738.46878,N,12219.68233,W,2,12,0.80,18.1,M,-18.8,M,,0000*4E
$GNGGA,144713.00,4738.46871,N,12219.68274,W,2,12,0.80,18.7,M,-18.8,M,,0000*4C
$GNGGA,144728.00,4738.46890,N,12219.68247,W,2,12,0.80,18.6,M,-18.8,M,,0000*4A
$GNGGA,144743.00,4738.46967,N,12219.68058,W,2,12,0.85,14.9,M,-18.8,M,,0000*44
$GNGGA,144758.00,4738.47007,N,12219.67984,W,2,12,0.85,11.1,M,-18.8,M,,0000*4A
$GNGGA,144813.00,4738.47034,N,12219.68005,W,2,12,0.85,8.8,M,-18.8,M,,0000*74
$GNGGA,144828.00,4738.47041,N,12219.68078,W,2,12,0.80,9.8,M,-18.8,M,,0000*70
$GNGGA,144843.00,4738.47052,N,12219.68106,W,2,12,0.75,11.1,M,-18.8,M,,0000*4D
$GNGGA,144858.00,4738.47006,N,12219.68099,W,2,12,0.75,13.3,M,-18.8,M,,0000*41
$GNGGA,144913.00,4738.46961,N,12219.68115,W,2,12,0.75,13.1,M,-18.8,M,,0000*41
$GNGGA,144928.00,4738.46931,N,12219.68101,W,2,12,0.84,12.3,M,-18.8,M,,0000*44
$GNGGA,144943.00,4738.46859,N,12219.68092,W,2,12,0.75,12.1,M,-18.8,M,,0000*41
$GNGGA,144958.00,4738.46791,N,12219.68122,W,2,12,0.75,13.7,M,-18.8,M,,0000*4D
$GNGGA,145013.00,4738.46732,N,12219.68164,W,2,12,0.75,16.6,M,-18.8,M,,0000*45
$GNGGA,145028.00,4738.46749,N,12219.68133,W,2,12,0.93,15.7,M,-18.8,M,,0000*49
$GNGGA,145043.00,4738.46748,N,12219.68168,W,2,12,0.77,16.9,M,-18.8,M,,0000*4C
$GNGGA,145058.00,4738.46772,N,12219.68251,W,2,12,0.77,15.7,M,-18.8,M,,0000*4B
$GNGGA,145114.00,4738.46851,N,12219.68172,W,2,12,0.77,11.8,M,-18.8,M,,0000*45
Left Side LED Status: 1
Left Side LED Status: 0
$GNGGA,145129.00,4738.46850,N,12219.68170,W,2,12,0.85,14.0,M,-18.8,M,,0000*48
$GNGGA,145144.00,4738.46829,N,12219.68199,W,2,12,0.85,18.2,M,-18.8,M,,0000*44
$GNGGA,145159.00,4738.46853,N,12219.68190,W,2,12,0.77,19.2,M,-18.8,M,,0000*40
$GNGGA,145214.00,4738.46833,N,12219.68182,W,2,12,0.77,21.4,M,-18.8,M,,0000*42
$GNGGA,145229.00,4738.46816,N,12219.68121,W,2,12,0.77,22.9,M,-18.8,M,,0000*4C
$GNGGA,145244.00,4738.46835,N,12219.68037,W,2,12,0.92,23.7,M,-18.8,M,,0000*44
$GNGGA,145259.00,4738.46863,N,12219.67979,W,2,12,0.96,24.0,M,-18.8,M,,0000*43
$GNGGA,145314.00,4738.46862,N,12219.67985,W,2,12,0.95,25.1,M,-18.8,M,,0000*4A
$GNGGA,145329.00,4738.46844,N,12219.67977,W,2,12,0.77,25.4,M,-18.8,M,,0000*44
$GNGGA,145344.00,4738.46820,N,12219.68063,W,2,12,1.01,25.2,M,-18.8,M,,0000*48
$GNGGA,145359.00,4738.46767,N,12219.68158,W,2,12,0.92,24.7,M,-18.8,M,,0000*4E
$GNGGA,145414.00,4738.46784,N,12219.68175,W,2,12,0.91,22.5,M,-18.8,M,,0000*45
$GNGGA,145429.00,4738.46811,N,12219.68137,W,2,12,0.91,20.5,M,-18.8,M,,0000*4C
$GNGGA,145444.00,4738.46775,N,12219.68180,W,2,12,0.97,22.0,M,-18.8,M,,0000*47
$GNGGA,145459.00,4738.46779,N,12219.68223,W,2,12,0.91,22.3,M,-18.8,M,,0000*48
$GNGGA,145514.00,4738.46812,N,12219.68202,W,2,12,0.76,21.5,M,-18.8,M,,0000*4D
$GNGGA,145529.00,4738.46872,N,12219.68090,W,2,12,0.91,19.0,M,-18.8,M,,0000*4B
$GNGGA,145544.00,4738.46889,N,12219.68082,W,2,12,0.81,19.0,M,-18.8,M,,0000*46
$GNGGA,145600.00,4738.46831,N,12219.68224,W,2,12,0.79,22.1,M,-18.8,M,,0000*46
$GNGGA,145615.00,4738.46809,N,12219.68305,W,2,12,0.73,24.6,M,-18.8,M,,0000*40
$GNGGA,145630.00,4738.46794,N,12219.68353,W,2,12,0.78,26.4,M,-18.8,M,,0000*44
$GNGGA,145645.00,4738.46794,N,12219.68368,W,2,12,0.73,25.6,M,-18.8,M,,0000*44
$GNGGA,145700.00,4738.46771,N,12219.68350,W,2,12,0.76,24.4,M,-18.8,M,,0000*42
$GNGGA,145715.00,4738.46818,N,12219.68317,W,2,12,0.76,19.7,M,-18.8,M,,0000*48
$GNGGA,145730.00,4738.46893,N,12219.68223,W,2,12,0.80,16.2,M,-18.8,M,,0000*49
$GNGGA,145745.00,4738.46985,N,12219.68165,W,2,12,1.00,11.5,M,-18.8,M,,0000*45
$GNGGA,145800.00,4738.47050,N,12219.68141,W,2,12,0.76,8.8,M,-18.8,M,,0000*78
Left Side LED Status: 1
$GNGGA,145815.00,4738.47030,N,12219.68107,W,2,12,0.76,13.0,M,-18.8,M,,0000*4A
$GNGGA,145830.00,4738.47019,N,12219.68050,W,2,12,1.00,13.4,M,-18.8,M,,0000*41
$GNGGA,145845.00,4738.47022,N,12219.68106,W,2,12,1.00,11.4,M,-18.8,M,,0000*4B
$GNGGA,145900.00,4738.47047,N,12219.68201,W,2,12,1.00,10.0,M,-18.8,M,,0000*49
$GNGGA,145915.00,4738.46982,N,12219.68171,W,2,12,0.73,11.0,M,-18.8,M,,0000*4C
$GNGGA,145930.00,4738.46999,N,12219.68210,W,2,12,0.99,6.3,M,-18.8,M,,0000*74
$GNGGA,145945.00,4738.47019,N,12219.68206,W,2,12,0.89,4.1,M,-18.8,M,,0000*70
$GNGGA,150000.00,4738.46971,N,12219.68104,W,2,12,0.76,7.1,M,-18.8,M,,0000*78
$GNGGA,150015.00,4738.46993,N,12219.68085,W,2,12,0.76,1.3,M,-18.8,M,,0000*7C
$GNGGA,150031.00,4738.46965,N,12219.68089,W,2,12,0.76,-0.2,M,-18.8,M,,0000*52
$GNGGA,150046.00,4738.46980,N,12219.67877,W,2,12,0.75,2.5,M,-18.8,M,,0000*74
$GNGGA,150101.00,4738.46954,N,12219.67884,W,2,12,0.88,4.6,M,-18.8,M,,0000*74
$GNGGA,150116.00,4738.46955,N,12219.67998,W,2,12,0.88,6.6,M,-18.8,M,,0000*7D
$GNGGA,150131.00,4738.46980,N,12219.68068,W,2,12,0.88,6.0,M,-18.8,M,,0000*7F
$GNGGA,150146.00,4738.46991,N,12219.68081,W,2,12,0.88,5.9,M,-18.8,M,,0000*72
$GNGGA,150201.00,4738.47013,N,12219.68006,W,2,12,0.88,5.1,M,-18.8,M,,0000*77
$GNGGA,150216.00,4738.46979,N,12219.67992,W,2,12,0.75,6.4,M,-18.8,M,,0000*7A
$GNGGA,150231.00,4738.46942,N,12219.67968,W,2,12,0.88,8.5,M,-18.8,M,,0000*7F
$GNGGA,150246.00,4738.46891,N,12219.67956,W,2,12,0.87,10.7,M,-18.8,M,,0000*49
$GNGGA,150301.00,4738.46899,N,12219.68021,W,2,12,0.87,9.5,M,-18.8,M,,0000*7F
$GNGGA,150316.00,4738.46935,N,12219.68018,W,2,12,0.75,7.9,M,-18.8,M,,0000*7B
$GNGGA,150331.00,4738.46885,N,12219.68034,W,2,12,0.75,9.7,M,-18.8,M,,0000*7A
$GNGGA,150346.00,4738.46800,N,12219.68039,W,2,12,0.75,13.6,M,-18.8,M,,0000*40
$GNGGA,150401.00,4738.46765,N,12219.68020,W,2,12,0.75,16.5,M,-18.8,M,,0000*46
$GNGGA,150416.00,4738.46756,N,12219.68054,W,2,12,0.75,17.2,M,-18.8,M,,0000*45
$GNGGA,150431.00,4738.46779,N,12219.68101,W,2,12,0.75,16.4,M,-18.8,M,,0000*4B
$GNGGA,150446.00,4738.46804,N,12219.68100,W,2,12,0.75,15.9,M,-18.8,M,,0000*41
$GNGGA,150501.00,4738.46849,N,12219.68110,W,2,12,0.75,12.5,M,-18.8,M,,0000*40
$GNGGA,150517.00,4738.46931,N,12219.68059,W,2,12,0.79,10.8,M,-18.8,M,,0000*46
$GNGGA,150532.00,4738.46974,N,12219.68074,W,2,12,0.79,7.5,M,-18.8,M,,0000*74
$GNGGA,150547.00,4738.46994,N,12219.68057,W,2,12,0.88,5.9,M,-18.8,M,,0000*79
$GNGGA,150602.00,4738.46998,N,12219.68051,W,2,12,0.79,6.0,M,-18.8,M,,0000*75
$GNGGA,150617.00,4738.46956,N,12219.68108,W,2,12,0.77,7.9,M,-18.8,M,,0000*78
$GNGGA,150632.00,4738.46971,N,12219.68132,W,2,12,0.83,7.1,M,-18.8,M,,0000*70
$GNGGA,150647.00,4738.46972,N,12219.68174,W,2,12,0.74,9.2,M,-18.8,M,,0000*76
$GNGGA,150702.00,4738.46970,N,12219.68213,W,2,12,0.71,11.3,M,-18.8,M,,0000*4B
$GNGGA,150717.00,4738.47017,N,12219.68207,W,2,12,0.89,11.3,M,-18.8,M,,0000*44
$GNGGA,150732.00,4738.47043,N,12219.68228,W,2,12,0.76,10.5,M,-18.8,M,,0000*48
$GNGGA,150747.00,4738.47023,N,12219.68262,W,2,12,0.76,8.5,M,-18.8,M,,0000*7B
$GNGGA,150802.00,4738.46974,N,12219.68290,W,2,12,0.76,9.7,M,-18.8,M,,0000*71
$GNGGA,150817.00,4738.46955,N,12219.68356,W,2,12,0.75,10.7,M,-18.8,M,,0000*46
$GNGGA,150832.00,4738.46885,N,12219.68376,W,2,12,0.76,13.6,M,-18.8,M,,0000*4E
$GNGGA,150847.00,4738.46859,N,12219.68414,W,2,12,0.76,16.4,M,-18.8,M,,0000*49
$GNGGA,150902.00,4738.46878,N,12219.68435,W,2,12,0.92,18.8,M,-18.8,M,,0000*41
$GNGGA,150917.00,4738.46947,N,12219.68399,W,2,12,0.93,21.5,M,-18.8,M,,0000*4F
$GNGGA,150932.00,4738.47005,N,12219.68368,W,2,12,0.76,23.4,M,-18.8,M,,0000*40
$GNGGA,150947.00,4738.47040,N,12219.68333,W,2,12,0.85,21.7,M,-18.8,M,,0000*40
$GNGGA,151002.00,4738.47026,N,12219.68319,W,2,12,0.76,20.7,M,-18.8,M,,0000*4C
$GNGGA,151017.00,4738.46997,N,12219.68348,W,2,12,0.76,21.0,M,-18.8,M,,0000*48
$GNGGA,151032.00,4738.46967,N,12219.68315,W,2,12,0.76,20.5,M,-18.8,M,,0000*4C
$GNGGA,151048.00,4738.46919,N,12219.68319,W,2,12,0.76,18.1,M,-18.8,M,,0000*4B
$GNGGA,151103.00,4738.46875,N,12219.68357,W,2,12,0.72,16.9,M,-18.8,M,,0000*46
$GNGGA,151118.00,4738.46859,N,12219.68452,W,2,12,0.76,14.6,M,-18.8,M,,0000*49
$GNGGA,151133.00,4738.46831,N,12219.68501,W,2,12,0.71,15.1,M,-18.8,M,,0000*48
$GNGGA,151148.00,4738.46829,N,12219.68472,W,2,12,0.71,15.4,M,-18.8,M,,0000*4D
$GNGGA,151203.00,4738.46831,N,12219.68440,W,2,12,0.74,19.1,M,-18.8,M,,0000*45
$GNGGA,151218.00,4738.46816,N,12219.68367,W,2,12,0.74,22.7,M,-18.8,M,,0000*46
$GNGGA,151233.00,4738.46847,N,12219.68346,W,2,12,0.87,24.8,M,-18.8,M,,0000*4D
$GNGGA,151248.00,4738.46838,N,12219.68407,W,2,12,0.73,26.0,M,-18.8,M,,0000*4A
$GNGGA,151303.00,4738.46842,N,12219.68404,W,2,12,0.71,26.2,M,-18.8,M,,0000*4A
$GNGGA,151318.00,4738.46822,N,12219.68375,W,2,12,0.71,26.8,M,-18.8,M,,0000*4D
$GNGGA,151333.00,4738.46826,N,12219.68318,W,2,12,0.75,25.6,M,-18.8,M,,0000*42
$GNGGA,151348.00,4738.46859,N,12219.68267,W,2,12,0.71,28.1,M,-18.8,M,,0000*41
$GNGGA,151403.00,4738.46855,N,12219.68274,W,2,12,0.74,25.6,M,-18.8,M,,0000*48
$GNGGA,151418.00,4738.46836,N,12219.68250,W,2,12,0.75,22.4,M,-18.8,M,,0000*45
$GNGGA,151433.00,4738.46889,N,12219.68184,W,2,12,0.71,21.5,M,-18.8,M,,0000*44
$GNGGA,151448.00,4738.46924,N,12219.68209,W,2,12,0.71,19.2,M,-18.8,M,,0000*44
$GNGGA,151503.00,4738.46927,N,12219.68235,W,2,12,0.76,17.4,M,-18.8,M,,0000*49
$GNGGA,151518.00,4738.46939,N,12219.68275,W,2,12,0.71,15.1,M,-18.8,M,,0000*48
$GNGGA,151534.00,4738.46938,N,12219.68380,W,2,12,0.71,9.5,M,-18.8,M,,0000*75
$GNGGA,151549.00,4738.46949,N,12219.68380,W,2,12,0.73,7.7,M,-18.8,M,,0000*77
$GNGGA,151604.00,4738.46973,N,12219.68340,W,2,12,0.71,5.4,M,-18.8,M,,0000*7B
$GNGGA,151619.00,4738.46923,N,12219.68319,W,2,12,0.74,5.3,M,-18.8,M,,0000*7C
$GNGGA,151634.00,4738.46862,N,12219.68251,W,2,12,0.70,9.8,M,-18.8,M,,0000*79
$GNGGA,151649.00,4738.46830,N,12219.68221,W,2,12,0.67,11.7,M,-18.8,M,,0000*43
$GNGGA,151704.00,4738.46855,N,12219.68204,W,2,12,0.67,11.4,M,-18.8,M,,0000*4C
$GNGGA,151719.00,4738.46839,N,12219.68224,W,2,12,0.67,12.7,M,-18.8,M,,0000*48
$GNGGA,151734.00,4738.46816,N,12219.68210,W,2,12,0.67,13.7,M,-18.8,M,,0000*4C
$GNGGA,151749.00,4738.46834,N,12219.68238,W,2,12,0.67,14.8,M,-18.8,M,,0000*44
$GNGGA,151804.00,4738.46837,N,12219.68246,W,2,12,0.67,16.6,M,-18.8,M,,0000*44
$GNGGA,151819.00,4738.46843,N,12219.68231,W,2,12,0.67,15.6,M,-18.8,M,,0000*48
$GNGGA,151834.00,4738.46882,N,12219.68246,W,2,12,0.67,13.6,M,-18.8,M,,0000*4C
$GNGGA,151849.00,4738.46926,N,12219.68258,W,2,12,0.70,9.4,M,-18.8,M,,0000*79
$GNGGA,151904.00,4738.46921,N,12219.68261,W,2,12,0.67,9.7,M,-18.8,M,,0000*79
$GNGGA,151919.00,4738.46924,N,12219.68266,W,2,12,0.67,7.5,M,-18.8,M,,0000*7B
$GNGGA,151934.00,4738.46919,N,12219.68291,W,2,12,0.72,7.0,M,-18.8,M,,0000*73
$GNGGA,151949.00,4738.46921,N,12219.68304,W,2,12,0.72,6.2,M,-18.8,M,,0000*7C
$GNGGA,152004.00,4738.46955,N,12219.68364,W,2,12,0.72,5.7,M,-18.8,M,,0000*7C
$GNGGA,152019.00,4738.46942,N,12219.68361,W,2,12,0.72,5.8,M,-18.8,M,,0000*7C
$GNGGA,152035.00,4738.46911,N,12219.68315,W,2,12,0.72,7.1,M,-18.8,M,,0000*7C
$GNGGA,152050.00,4738.46895,N,12219.68276,W,2,12,0.72,7.9,M,-18.8,M,,0000*7E
$GNGGA,152105.00,4738.46902,N,12219.68294,W,2,12,0.67,7.7,M,-18.8,M,,0000*76
$GNGGA,152120.00,4738.46898,N,12219.68287,W,2,12,0.67,7.2,M,-18.8,M,,0000*74
$GNGGA,152135.00,4738.46879,N,12219.68247,W,2,12,0.67,6.9,M,-18.8,M,,0000*79
$GNGGA,152150.00,4738.46894,N,12219.68219,W,2,12,0.71,5.9,M,-18.8,M,,0000*76
$GNGGA,152205.00,4738.46909,N,12219.68179,W,2,12,0.67,5.0,M,-18.8,M,,0000*7B
$GNGGA,152220.00,4738.46899,N,12219.68165,W,2,12,0.70,5.5,M,-18.8,M,,0000*7A
$GNGGA,152235.00,4738.46862,N,12219.68191,W,2,12,0.67,8.3,M,-18.8,M,,0000*7C
$GNGGA,152250.00,4738.46846,N,12219.68184,W,2,12,0.67,11.0,M,-18.8,M,,0000*46
$GNGGA,152305.00,4738.46840,N,12219.68183,W,2,12,0.71,12.2,M,-18.8,M,,0000*40
$GNGGA,152320.00,4738.46836,N,12219.68228,W,2,12,0.71,12.9,M,-18.8,M,,0000*4F
$GNGGA,152335.00,4738.46840,N,12219.68283,W,2,12,0.76,13.9,M,-18.8,M,,0000*4D
$GNGGA,152350.00,4738.46857,N,12219.68339,W,2,12,0.70,13.8,M,-18.8,M,,0000*4F
$GNGGA,152405.00,4738.46890,N,12219.68391,W,2,12,0.70,12.2,M,-18.8,M,,0000*4A
$GNGGA,152420.00,4738.46930,N,12219.68397,W,2,12,0.67,9.7,M,-18.8,M,,0000*79
$GNGGA,152435.00,4738.46901,N,12219.68339,W,2,12,0.70,10.7,M,-18.8,M,,0000*45
$GNGGA,152450.00,4738.46861,N,12219.68289,W,2,12,0.67,15.6,M,-18.8,M,,0000*49
$GNGGA,152505.00,4738.46826,N,12219.68276,W,2,12,0.67,20.0,M,-18.8,M,,0000*4B
$GNGGA,152520.00,4738.46789,N,12219.68268,W,2,12,0.68,21.2,M,-18.8,M,,0000*45
$GNGGA,152536.00,4738.46767,N,12219.68306,W,2,12,0.68,21.0,M,-18.8,M,,0000*49
$GNGGA,152551.00,4738.46742,N,12219.68271,W,2,12,0.67,20.2,M,-18.8,M,,0000*42
$GNGGA,152606.00,4738.46762,N,12219.68224,W,2,12,0.67,20.0,M,-18.8,M,,0000*43
$GNGGA,152621.00,4738.46792,N,12219.68151,W,2,12,0.67,21.8,M,-18.8,M,,0000*41
$GNGGA,152636.00,4738.46803,N,12219.68108,W,2,12,0.70,14.7,M,-18.8,M,,0000*43
$GNGGA,152651.00,4738.46777,N,12219.68094,W,2,12,0.74,8.6,M,-18.8,M,,0000*72
$GNGGA,152706.00,4738.46739,N,12219.68108,W,2,12,0.81,8.9,M,-18.8,M,,0000*7A
$GNGGA,152721.00,4738.46735,N,12219.68214,W,2,12,0.70,8.5,M,-18.8,M,,0000*7F
$GNGGA,152736.00,4738.46741,N,12219.68280,W,2,12,0.70,10.1,M,-18.8,M,,0000*4A
$GNGGA,152751.00,4738.46762,N,12219.68323,W,2,12,0.70,11.5,M,-18.8,M,,0000*47
$GNGGA,152806.00,4738.46770,N,12219.68378,W,2,12,0.72,13.7,M,-18.8,M,,0000*45
$GNGGA,152821.00,4738.46778,N,12219.68365,W,2,12,0.70,16.1,M,-18.8,M,,0000*45
$GNGGA,152836.00,4738.46815,N,12219.68267,W,2,12,0.69,15.6,M,-18.8,M,,0000*48
$GNGGA,152851.00,4738.46834,N,12219.68125,W,2,12,0.75,14.0,M,-18.8,M,,0000*45
$GNGGA,152906.00,4738.46840,N,12219.68044,W,2,12,0.67,12.7,M,-18.8,M,,0000*41
$GNGGA,152921.00,4738.46825,N,12219.68051,W,2,12,0.72,11.1,M,-18.8,M,,0000*42
$GNGGA,152936.00,4738.46773,N,12219.68117,W,2,12,0.72,10.8,M,-18.8,M,,0000*43
$GNGGA,152951.00,4738.46764,N,12219.68138,W,2,12,0.72,9.8,M,-18.8,M,,0000*71
$GNGGA,153006.00,4738.46746,N,12219.68173,W,2,12,0.69,12.8,M,-18.8,M,,0000*44
$GNGGA,153021.00,4738.46724,N,12219.68244,W,2,12,0.69,15.8,M,-18.8,M,,0000*45
$GNGGA,153037.00,4738.46729,N,12219.68273,W,2,12,0.67,16.4,M,-18.8,M,,0000*4A
$GNGGA,153052.00,4738.46725,N,12219.68310,W,2,12,0.67,18.1,M,-18.8,M,,0000*4A
$GNGGA,153107.00,4738.46725,N,12219.68329,W,2,12,0.67,20.5,M,-18.8,M,,0000*4E
$GNGGA,153122.00,4738.46741,N,12219.68312,W,2,12,0.67,20.4,M,-18.8,M,,0000*42
$GNGGA,153137.00,4738.46757,N,12219.68277,W,2,12,0.72,19.8,M,-18.8,M,,0000*41
$GNGGA,153152.00,4738.46738,N,12219.68252,W,2,12,0.67,21.0,M,-18.8,M,,0000*4B
$GNGGA,153207.00,4738.46712,N,12219.68258,W,2,12,0.67,21.6,M,-18.8,M,,0000*4C
$GNGGA,153222.00,4738.46733,N,12219.68230,W,2,12,0.63,22.4,M,-18.8,M,,0000*43
$GNGGA,153237.00,4738.46763,N,12219.68276,W,2,12,0.67,23.1,M,-18.8,M,,0000*40
$GNGGA,153252.00,4738.46772,N,12219.68259,W,2,12,0.70,22.0,M,-18.8,M,,0000*48
$GNGGA,153307.00,4738.46756,N,12219.68231,W,2,12,0.69,21.2,M,-18.8,M,,0000*48
$GNGGA,153322.00,4738.46741,N,12219.68228,W,2,12,0.66,20.9,M,-18.8,M,,0000*44
$GNGGA,153337.00,4738.46722,N,12219.68235,W,2,12,0.66,21.7,M,-18.8,M,,0000*46
$GNGGA,153352.00,4738.46753,N,12219.68227,W,2,12,0.66,21.5,M,-18.8,M,,0000*42
$GNGGA,153407.00,4738.46833,N,12219.68238,W,2,12,0.69,20.1,M,-18.8,M,,0000*48
$GNGGA,153422.00,4738.46858,N,12219.68269,W,2,12,0.69,20.9,M,-18.8,M,,0000*4E
$GNGGA,153437.00,4738.46866,N,12219.68309,W,2,12,0.63,21.3,M,-18.8,M,,0000*41
$GNGGA,153452.00,4738.46846,N,12219.68316,W,2,12,0.66,19.9,M,-18.8,M,,0000*4A
$GNGGA,153507.00,4738.46852,N,12219.68302,W,2,12,0.69,18.1,M,-18.8,M,,0000*4D
$GNGGA,153522.00,4738.46858,N,12219.68309,W,2,12,0.66,17.4,M,-18.8,M,,0000*4E
$GNGGA,153538.00,4738.46848,N,12219.68316,W,2,12,0.69,16.6,M,-18.8,M,,0000*46
$GNGGA,153553.00,4738.46823,N,12219.68319,W,2,12,0.66,16.5,M,-18.8,M,,0000*45
$GNGGA,153608.00,4738.46826,N,12219.68303,W,2,12,0.66,16.6,M,-18.8,M,,0000*45
$GNGGA,153623.00,4738.46850,N,12219.68297,W,2,12,0.69,13.5,M,-18.8,M,,0000*48
$GNGGA,153638.00,4738.46944,N,12219.68240,W,2,12,0.73,10.5,M,-18.8,M,,0000*44
$GNGGA,153653.00,4738.46997,N,12219.68215,W,2,12,0.71,9.8,M,-18.8,M,,0000*70
$GNGGA,153708.00,4738.47008,N,12219.68233,W,2,12,0.71,9.3,M,-18.8,M,,0000*7E
$GNGGA,153723.00,4738.47001,N,12219.68257,W,2,12,0.71,11.0,M,-18.8,M,,0000*46
$GNGGA,153738.00,4738.46980,N,12219.68253,W,2,12,0.68,13.3,M,-18.8,M,,0000*40
$GNGGA,153753.00,4738.46964,N,12219.68206,W,2,12,0.68,13.9,M,-18.8,M,,0000*4D
$GNGGA,153808.00,4738.46970,N,12219.68115,W,2,12,0.65,13.8,M,-18.8,M,,0000*44
$GNGGA,153823.00,4738.46948,N,12219.68
    ___  __          __
   / _ )/ /_ _____  / /__
  / _  / / // / _ \/  '_/
 /____/_/\_, /_//_/_/\_\
        /___/ for Python v0.2.0 (Linux)

Welcome to the 4Runner MOC, powered by Raspberry Pi
°
$GNGGA,202551.00,4738.46491,N,12219.67382,W,1,11,0.85,0.3,M,-18.8,M,,*74
$GNGGA,202556.00,4738.46446,N,12219.67451,W,1,11,0.85,-0.6,M,-18.8,M,,*58
$GNGGA,202601.00,4738.46409,N,12219.67530,W,1,11,0.85,-0.6,M,-18.8,M,,*54
SCRIPT WAS INTERRUPTED

    ___  __          __
   / _ )/ /_ _____  / /__
  / _  / / // / _ \/  '_/
 /____/_/\_, /_//_/_/\_\
        /___/ for Python v0.2.0 (Linux)

Welcome to the 4Runner MOC, powered by Raspberry Pi
SCRIPT WAS INTERRUPTED

    ___  __          __
   / _ )/ /_ _____  / /__
  / _  / / // / _ \/  '_/
 /____/_/\_, /_//_/_/\_\
        /___/ for Python v0.2.0 (Linux)

Welcome to the 4Runner MOC, powered by Raspberry Pi
Left Side LED Status: 1
Left Side LED Status: 0
Right Side LED Status: 1
Right Side LED Status: 0
Ditch Light LED Status: 1
Ditch Light LED Status: 0
RT LED Lightbar Status: 1
RT LED Lightbar Status: 0
Rear LED Status: 1
Rear LED Status: 0
$GNRMC,235202.00,A,4738.46566,N,12219.67749,W,0.079,,071220,,,A*7D
$GNGGA,235202.00,4738.46566,N,12219.67749,W,1,11,0.92,11.8,M,-18.8,M,,*46
$GNRMC,235217.00,A,4738.46617,N,12219.67808,W,0.083,,071220,,,A*73
$GNGGA,235217.00,4738.46617,N,12219.67808,W,1,11,0.97,14.8,M,-18.8,M,,*4D
Alarm Status: 1
Disabling Fuel Pump in 10 Seconds
Disabling Fuel Pump
$GNRMC,235234.00,A,4738.46671,N,12219.67839,W,0.019,,071220,,,A*73
$GNGGA,235234.00,4738.46671,N,12219.67839,W,1,12,0.79,12.8,M,-18.8,M,,*4B
Alarm Status: 0
$GNRMC,235249.00,A,4738.46719,N,12219.67807,W,0.028,,071220,,,A*79
$GNGGA,235249.00,4738.46719,N,12219.67807,W,1,12,0.85,10.8,M,-18.8,M,,*42
$GNRMC,235304.00,A,4738.46734,N,12219.67804,W,0.281,,071220,,,D*79
$GNGGA,235304.00,4738.46734,N,12219.67804,W,2,12,0.71,10.4,M,-18.8,M,,0000*42
$GNRMC,235319.00,A,4738.46791,N,12219.67702,W,0.086,,071220,,,D*76
$GNGGA,235319.00,4738.46791,N,12219.67702,W,2,12,0.84,9.4,M,-18.8,M,,0000*7A
$GNRMC,235334.00,A,4738.46820,N,12219.67621,W,0.045,,071220,,,D*73
$GNGGA,235334.00,4738.46820,N,12219.67621,W,2,12,0.80,6.8,M,-18.8,M,,0000*77
$GNRMC,235349.00,A,4738.46862,N,12219.67514,W,0.041,,071220,,,D*7E
$GNGGA,235349.00,4738.46862,N,12219.67514,W,2,12,0.71,6.7,M,-18.8,M,,0000*7F
$GNRMC,235404.00,A,4738.46846,N,12219.67627,W,0.083,,071220,,,D*7B
$GNGGA,235404.00,4738.46846,N,12219.67627,W,2,12,0.71,10.1,M,-18.8,M,,0000*45
$GNRMC,235419.00,A,4738.46880,N,12219.67644,W,0.035,,071220,,,D*75
$GNGGA,235419.00,4738.46880,N,12219.67644,W,2,12,0.71,13.9,M,-18.8,M,,0000*4D
$GNRMC,235434.00,A,4738.46871,N,12219.67701,W,0.075,,071220,,,D*70
$GNGGA,235434.00,4738.46871,N,12219.67701,W,2,12,0.74,17.5,M,-18.8,M,,0000*41
$GNRMC,235449.00,A,4738.46839,N,12219.67734,W,0.038,,071220,,,D*79
$GNGGA,235449.00,4738.46839,N,12219.67734,W,2,12,0.74,19.0,M,-18.8,M,,0000*4A
$GNRMC,235504.00,A,4738.46818,N,12219.67850,W,0.037,,071220,,,D*70
$GNGGA,235504.00,4738.46818,N,12219.67850,W,2,12,0.74,18.9,M,-18.8,M,,0000*44
$GNRMC,235519.00,A,4738.46765,N,12219.67929,W,0.024,,071220,,,D*74
$GNGGA,235519.00,4738.46765,N,12219.67929,W,2,12,0.71,16.7,M,-18.8,M,,0000*47
$GNRMC,235534.00,A,4738.46762,N,12219.67930,W,0.075,,071220,,,D*70
$GNGGA,235534.00,4738.46762,N,12219.67930,W,2,12,0.71,16.6,M,-18.8,M,,0000*46
$GNRMC,235549.00,A,4738.46785,N,12219.67912,W,0.010,,071220,,,D*70
$GNGGA,235549.00,4738.46785,N,12219.67912,W,2,12,0.71,16.6,M,-18.8,M,,0000*45
$GNRMC,235605.00,A,4738.46827,N,12219.67889,W,0.010,,071220,,,D*7F
$GNGGA,235605.00,4738.46827,N,12219.67889,W,2,12,0.71,17.8,M,-18.8,M,,0000*45
$GNRMC,235620.00,A,4738.46874,N,12219.67889,W,0.019,,071220,,,D*77
$GNGGA,235620.00,4738.46874,N,12219.67889,W,2,12,0.71,17.3,M,-18.8,M,,0000*4F
$GNRMC,235635.00,A,4738.46893,N,12219.67880,W,0.035,,071220,,,D*7D
$GNGGA,235635.00,4738.46893,N,12219.67880,W,2,12,0.80,16.1,M,-18.8,M,,0000*46
$GNRMC,235650.00,A,4738.46854,N,12219.67811,W,0.019,,071220,,,D*73
$GNGGA,235650.00,4738.46854,N,12219.67811,W,2,12,0.71,17.8,M,-18.8,M,,0000*40
$GNRMC,235705.00,A,4738.46879,N,12219.67794,W,0.022,,071220,,,D*77
$GNGGA,235705.00,4738.46879,N,12219.67794,W,2,12,0.71,18.8,M,-18.8,M,,0000*43
$GNRMC,235720.00,A,4738.46859,N,12219.67782,W,0.012,,071220,,,D*76
$GNGGA,235720.00,4738.46859,N,12219.67782,W,2,12,0.71,19.4,M,-18.8,M,,0000*4C
$GNRMC,235735.00,A,4738.46866,N,12219.67721,W,0.046,,071220,,,D*76
$GNGGA,235735.00,4738.46866,N,12219.67721,W,2,12,0.71,20.6,M,-18.8,M,,0000*45
$GNRMC,235750.00,A,4738.46891,N,12219.67653,W,0.034,,071220,,,D*7C
$GNGGA,235750.00,4738.46891,N,12219.67653,W,2,12,0.71,21.3,M,-18.8,M,,0000*4E
$GNRMC,235805.00,A,4738.46917,N,12219.67634,W,0.070,,071220,,,D*7D
$GNGGA,235805.00,4738.46917,N,12219.67634,W,2,12,0.75,20.4,M,-18.8,M,,0000*4D
$GNRMC,235820.00,A,4738.46927,N,12219.67628,W,0.019,,071220,,,D*7B
$GNGGA,235820.00,4738.46927,N,12219.67628,W,2,12,0.74,19.0,M,-18.8,M,,0000*4B
$GNRMC,235835.00,A,4738.46894,N,12219.67650,W,0.078,,071220,,,D*7E
$GNGGA,235835.00,4738.46894,N,12219.67650,W,2,12,0.74,19.4,M,-18.8,M,,0000*4D
$GNRMC,235850.00,A,4738.46866,N,12219.67686,W,0.024,,071220,,,D*72
$GNGGA,235850.00,4738.46866,N,12219.67686,W,2,12,0.75,20.1,M,-18.8,M,,0000*46
$GNRMC,235905.00,A,4738.46839,N,12219.67691,W,0.057,,071220,,,D*7B
$GNGGA,235905.00,4738.46839,N,12219.67691,W,2,12,0.71,20.3,M,-18.8,M,,0000*4D
$GNRMC,235920.00,A,4738.46824,N,12219.67682,W,0.040,,071220,,,D*74
$GNGGA,235920.00,4738.46824,N,12219.67682,W,2,12,0.71,20.4,M,-18.8,M,,0000*43
$GNRMC,235935.00,A,4738.46833,N,12219.67718,W,0.201,,071220,,,D*73
$GNGGA,235935.00,4738.46833,N,12219.67718,W,2,12,0.71,20.0,M,-18.8,M,,0000*47
$GNRMC,235950.00,A,4738.46845,N,12219.67734,W,0.030,,071220,,,D*7F
$GNGGA,235950.00,4738.46845,N,12219.67734,W,2,12,0.75,18.3,M,-18.8,M,,0000*47
$GNRMC,000005.00,A,4738.46866,N,12219.67723,W,0.079,,081220,,,D*77
$GNGGA,000005.00,4738.46866,N,12219.67723,W,2,12,0.75,16.2,M,-18.8,M,,0000*42
$GNRMC,000020.00,A,4738.46857,N,12219.67744,W,0.050,,081220,,,D*78
$GNGGA,000020.00,4738.46857,N,12219.67744,W,2,12,0.75,15.9,M,-18.8,M,,0000*4E
$GNRMC,000035.00,A,4738.46863,N,12219.67758,W,0.078,,081220,,,D*7C
$GNGGA,000035.00,4738.46863,N,12219.67758,W,2,12,0.77,15.7,M,-18.8,M,,0000*4C
$GNRMC,000050.00,A,4738.46841,N,12219.67749,W,0.011,,081220,,,D*70
$GNGGA,000050.00,4738.46841,N,12219.67749,W,2,12,0.73,15.8,M,-18.8,M,,0000*44
$GNRMC,000106.00,A,4738.46818,N,12219.67766,W,0.065,,081220,,,D*70
$GNGGA,000106.00,4738.46818,N,12219.67766,W,2,12,0.75,17.3,M,-18.8,M,,0000*48
$GNRMC,000121.00,A,4738.46814,N,12219.67766,W,0.138,,081220,,,D*70
$GNGGA,000121.00,4738.46814,N,12219.67766,W,2,12,0.72,18.8,M,-18.8,M,,0000*42
$GNRMC,000136.00,A,4738.46804,N,12219.67702,W,0.159,,081220,,,D*72
$GNGGA,000136.00,4738.46804,N,12219.67702,W,2,12,0.72,19.5,M,-18.8,M,,0000*4B
$GNRMC,000151.00,A,4738.46811,N,12219.67618,W,0.085,,081220,,,D*7D
$GNGGA,000151.00,4738.46811,N,12219.67618,W,2,12,0.75,19.3,M,-18.8,M,,0000*45
$GNRMC,000206.00,A,4738.46818,N,12219.67602,W,0.129,,081220,,,D*79
$GNGGA,000206.00,4738.46818,N,12219.67602,W,2,12,0.72,20.1,M,-18.8,M,,0000*49
$GNRMC,000221.00,A,4738.46791,N,12219.67573,W,0.145,,081220,,,D*7D
$GNGGA,000221.00,4738.46791,N,12219.67573,W,2,12,0.82,21.3,M,-18.8,M,,0000*4B
$GNRMC,000236.00,A,4738.46840,N,12219.67511,W,0.019,,081220,,,D*74
$GNGGA,000236.00,4738.46840,N,12219.67511,W,2,12,0.82,19.1,M,-18.8,M,,0000*43
$GNRMC,000251.00,A,4738.46908,N,12219.67495,W,0.170,,081220,,,D*7B
$GNGGA,000251.00,4738.46908,N,12219.67495,W,2,12,0.86,16.5,M,-18.8,M,,0000*4D
$GNRMC,000306.00,A,4738.46969,N,12219.67535,W,0.037,,081220,,,D*76
$GNGGA,000306.00,4738.46969,N,12219.67535,W,2,12,0.75,13.3,M,-18.8,M,,0000*4D
$GNRMC,000321.00,A,4738.46945,N,12219.67595,W,0.094,,081220,,,D*7E
$GNGGA,000321.00,4738.46945,N,12219.67595,W,2,12,0.72,14.6,M,-18.8,M,,0000*49
$GNRMC,000336.00,A,4738.46928,N,12219.67602,W,0.037,,081220,,,D*77
$GNGGA,000336.00,4738.46928,N,12219.67602,W,2,12,0.76,15.8,M,-18.8,M,,0000*42
$GNRMC,000351.00,A,4738.46909,N,12219.67580,W,0.088,,081220,,,D*78
$GNGGA,000351.00,4738.46909,N,12219.67580,W,2,12,0.72,17.1,M,-18.8,M,,0000*46
$GNRMC,000406.00,A,4738.46876,N,12219.67623,W,0.045,,081220,,,D*7F
$GNGGA,000406.00,4738.46876,N,12219.67623,W,2,12,0.75,18.9,M,-18.8,M,,0000*40
$GNRMC,000421.00,A,4738.46826,N,12219.67704,W,0.064,,081220,,,D*78
$GNGGA,000421.00,4738.46826,N,12219.67704,W,2,12,0.80,21.2,M,-18.8,M,,0000*4F
$GNRMC,000436.00,A,4738.46821,N,12219.67748,W,0.127,,081220,,,D*77
$GNGGA,000436.00,4738.46821,N,12219.67748,W,2,12,0.75,21.2,M,-18.8,M,,0000*4C
$GNRMC,000451.00,A,4738.46831,N,12219.67797,W,0.043,,081220,,,D*76
$GNGGA,000451.00,4738.46831,N,12219.67797,W,2,12,0.77,19.2,M,-18.8,M,,0000*47
$GNRMC,000506.00,A,4738.46861,N,12219.67778,W,0.109,,081220,,,D*7E
$GNGGA,000506.00,4738.46861,N,12219.67778,W,2,12,0.77,18.4,M,-18.8,M,,0000*47
$GNRMC,000521.00,A,4738.46855,N,12219.67768,W,0.036,,081220,,,D*70
$GNGGA,000521.00,4738.46855,N,12219.67768,W,2,12,0.77,18.1,M,-18.8,M,,0000*41
$GNRMC,000536.00,A,4738.46857,N,12219.67762,W,0.032,,081220,,,D*7A
$GNGGA,000536.00,4738.46857,N,12219.67762,W,2,12,0.77,19.0,M,-18.8,M,,0000*4F
$GNRMC,000551.00,A,4738.46912,N,12219.67712,W,0.078,,081220,,,D*72
$GNGGA,000551.00,4738.46912,N,12219.67712,W,2,12,0.77,21.7,M,-18.8,M,,0000*45
$GNRMC,000607.00,A,4738.46992,N,12219.67746,W,0.059,,081220,,,D*78
$GNGGA,000607.00,4738.46992,N,12219.67746,W,2,12,0.75,24.5,M,-18.8,M,,0000*49
$GNRMC,000622.00,A,4738.47028,N,12219.67739,W,0.454,,081220,,,D*77
$GNGGA,000622.00,4738.47028,N,12219.67739,W,2,12,0.75,24.2,M,-18.8,M,,0000*48
$GNRMC,000637.00,A,4738.47007,N,12219.67719,W,0.078,,081220,,,D*76
$GNGGA,000637.00,4738.47007,N,12219.67719,W,2,12,0.75,22.2,M,-18.8,M,,0000*45
$GNRMC,000652.00,A,4738.47000,N,12219.67713,W,0.016,,081220,,,D*70
$GNGGA,000652.00,4738.47000,N,12219.67713,W,2,12,0.71,20.3,M,-18.8,M,,0000*4C
$GNRMC,000707.00,A,4738.46970,N,12219.67743,W,0.047,,081220,,,D*7F
$GNGGA,000707.00,4738.46970,N,12219.67743,W,2,12,0.71,19.1,M,-18.8,M,,0000*4F
$GNRMC,000722.00,A,4738.46890,N,12219.67760,W,0.043,,081220,,,D*72
$GNGGA,000722.00,4738.46890,N,12219.67760,W,2,12,0.71,18.8,M,-18.8,M,,0000*4E
$GNRMC,000737.00,A,4738.46836,N,12219.67791,W,0.023,,081220,,,D*72
$GNGGA,000737.00,4738.46836,N,12219.67791,W,2,12,0.71,17.9,M,-18.8,M,,0000*46
$GNRMC,000752.00,A,4738.46791,N,12219.67849,W,0.042,,081220,,,D*7E
$GNGGA,000752.00,4738.46791,N,12219.67849,W,2,12,0.71,16.4,M,-18.8,M,,0000*41
$GNRMC,000807.00,A,4738.46757,N,12219.67887,W,0.026,,081220,,,D*7B
$GNGGA,000807.00,4738.46757,N,12219.67887,W,2,12,0.81,16.1,M,-18.8,M,,0000*4C
$GNRMC,000822.00,A,4738.46724,N,12219.67874,W,0.030,,081220,,,D*73
$GNGGA,000822.00,4738.46724,N,12219.67874,W,2,12,0.71,16.2,M,-18.8,M,,0000*4F
$GNRMC,000837.00,A,4738.46704,N,12219.67842,W,0.012,,081220,,,D*70
$GNGGA,000837.00,4738.46704,N,12219.67842,W,2,12,0.71,16.5,M,-18.8,M,,0000*4B
$GNRMC,000852.00,A,4738.46668,N,12219.67818,W,0.043,,081220,,,D*73
$GNGGA,000852.00,4738.46668,N,12219.67818,W,2,12,0.71,17.4,M,-18.8,M,,0000*4C
$GNRMC,000907.00,A,4738.46641,N,12219.67806,W,0.009,,081220,,,D*78
$GNGGA,000907.00,4738.46641,N,12219.67806,W,2,12,0.81,17.1,M,-18.8,M,,0000*43
$GNRMC,000922.00,A,4738.46617,N,12219.67775,W,0.020,,081220,,,D*7C
$GNGGA,000922.00,4738.46617,N,12219.67775,W,2,12,0.71,17.5,M,-18.8,M,,0000*47
$GNRMC,000937.00,A,4738.46631,N,12219.67748,W,0.010,,081220,,,D*71
$GNGGA,000937.00,4738.46631,N,12219.67748,W,2,12,0.71,18.1,M,-18.8,M,,0000*42
$GNRMC,000952.00,A,4738.46635,N,12219.67730,W,0.058,,081220,,,D*75
$GNGGA,000952.00,4738.46635,N,12219.67730,W,2,12,0.71,18.3,M,-18.8,M,,0000*48
$GNRMC,001007.00,A,4738.46620,N,12219.67744,W,0.035,,081220,,,D*71
$GNGGA,001007.00,4738.46620,N,12219.67744,W,2,12,0.71,19.0,M,-18.8,M,,0000*45
$GNRMC,001022.00,A,4738.46630,N,12219.67769,W,0.029,,081220,,,D*75
$GNGGA,001022.00,4738.46630,N,12219.67769,W,2,12,0.71,18.8,M,-18.8,M,,0000*45
$GNRMC,001037.00,A,4738.46628,N,12219.67823,W,0.040,,081220,,,D*76
$GNGGA,001037.00,4738.46628,N,12219.67823,W,2,12,0.76,16.3,M,-18.8,M,,0000*4B
$GNRMC,001052.00,A,4738.46668,N,12219.67825,W,0.072,,081220,,,D*76
$GNGGA,001052.00,4738.46668,N,12219.67825,W,2,12,0.76,13.6,M,-18.8,M,,0000*4A
$GNRMC,001107.00,A,4738.46656,N,12219.67774,W,0.059,,081220,,,D*78
$GNGGA,001107.00,4738.46656,N,12219.67774,W,2,12,0.99,12.3,M,-18.8,M,,0000*48
$GNRMC,001123.00,A,4738.46632,N,12219.67741,W,0.074,,081220,,,D*75
$GNGGA,001123.00,4738.46632,N,12219.67741,W,2,12,0.86,11.9,M,-18.8,M,,0000*4D
$GNRMC,001138.00,A,4738.46661,N,12219.67854,W,0.049,,081220,,,D*7C
$GNGGA,001138.00,4738.46661,N,12219.67854,W,2,12,0.73,10.6,M,-18.8,M,,0000*4E
$GNRMC,001153.00,A,4738.46656,N,12219.67955,W,0.060,,081220,,,D*7E
$GNGGA,001153.00,4738.46656,N,12219.67955,W,2,12,0.73,13.4,M,-18.8,M,,0000*46
$GNRMC,001208.00,A,4738.46675,N,12219.68021,W,0.026,,081220,,,D*75
$GNGGA,001208.00,4738.46675,N,12219.68021,W,2,12,0.73,15.3,M,-18.8,M,,0000*4E
$GNRMC,001223.00,A,4738.46635,N,12219.68041,W,0.077,,081220,,,D*7A
$GNGGA,001223.00,4738.46635,N,12219.68041,W,2,12,0.73,16.7,M,-18.8,M,,0000*42
$GNRMC,001238.00,A,4738.46640,N,12219.67995,W,0.049,,081220,,,D*70
$GNGGA,001238.00,4738.46640,N,12219.67995,W,2,12,0.73,15.9,M,-18.8,M,,0000*48
$GNRMC,001253.00,A,4738.46655,N,12219.67950,W,0.036,,081220,,,D*78
$GNGGA,001253.00,4738.46655,N,12219.67950,W,2,12,0.71,13.7,M,-18.8,M,,0000*42
$GNRMC,001308.00,A,4738.46636,N,12219.67942,W,0.045,,081220,,,D*75
$GNGGA,001308.00,4738.46636,N,12219.67942,W,2,12,0.85,12.8,M,-18.8,M,,0000*4E
$GNRMC,001323.00,A,4738.46660,N,12219.67832,W,0.023,,081220,,,D*79
$GNGGA,001323.00,4738.46660,N,12219.67832,W,2,12,0.71,12.5,M,-18.8,M,,0000*44
$GNRMC,001338.00,A,4738.46712,N,12219.67744,W,0.056,,081220,,,D*7B
$GNGGA,001338.00,4738.46712,N,12219.67744,W,2,12,0.71,10.3,M,-18.8,M,,0000*40
$GNRMC,001353.00,A,4738.46728,N,12219.67772,W,0.013,,081220,,,D*7B
$GNGGA,001353.00,4738.46728,N,12219.67772,W,2,12,0.76,10.4,M,-18.8,M,,0000*41
$GNRMC,001408.00,A,4738.46753,N,12219.67795,W,0.022,,081220,,,D*75
$GNGGA,001408.00,4738.46753,N,12219.67795,W,2,12,0.85,12.7,M,-18.8,M,,0000*40
$GNRMC,001423.00,A,4738.46776,N,12219.67781,W,0.064,,081220,,,D*7C
$GNGGA,001423.00,4738.46776,N,12219.67781,W,2,12,0.85,10.2,M,-18.8,M,,0000*4C
$GNRMC,001438.00,A,4738.46773,N,12219.67798,W,0.022,,081220,,,D*79
$GNGGA,001438.00,4738.46773,N,12219.67798,W,2,12,0.84,9.2,M,-18.8,M,,0000*72
$GNRMC,001453.00,A,4738.46803,N,12219.67836,W,0.048,,081220,,,D*7B
$GNGGA,001453.00,4738.46803,N,12219.67836,W,2,12,0.76,10.0,M,-18.8,M,,0000*4B
$GNRMC,001508.00,A,4738.46855,N,12219.67815,W,0.053,,081220,,,D*7C
$GNGGA,001508.00,4738.46855,N,12219.67815,W,2,12,0.76,10.4,M,-18.8,M,,0000*42
$GNRMC,001523.00,A,4738.46879,N,12219.67743,W,0.029,,081220,,,D*7A
$GNGGA,001523.00,4738.46879,N,12219.67743,W,2,12,0.76,9.2,M,-18.8,M,,0000*77
$GNRMC,001538.00,A,4738.46876,N,12219.67735,W,0.043,,081220,,,D*72
$GNGGA,001538.00,4738.46876,N,12219.67735,W,2,12,0.76,9.6,M,-18.8,M,,0000*77
$GNRMC,001553.00,A,4738.46850,N,12219.67773,W,0.013,,081220,,,D*7C
$GNGGA,001553.00,4738.46850,N,12219.67773,W,2,12,0.76,10.1,M,-18.8,M,,0000*43
$GNRMC,001609.00,A,4738.46898,N,12219.67762,W,0.021,,081220,,,D*75
$GNGGA,001609.00,4738.46898,N,12219.67762,W,2,12,0.87,7.1,M,-18.8,M,,0000*73
$GNRMC,001624.00,A,4738.46928,N,12219.67788,W,0.084,,081220,,,D*7B
$GNGGA,001624.00,4738.46928,N,12219.67788,W,2,12,0.87,6.2,M,-18.8,M,,0000*70
$GNRMC,001639.00,A,4738.46958,N,12219.67832,W,0.114,,081220,,,D*76
$GNGGA,001639.00,4738.46958,N,12219.67832,W,2,12,0.84,5.3,M,-18.8,M,,0000*74
$GNRMC,001654.00,A,4738.46955,N,12219.67848,W,0.045,,081220,,,D*78
$GNGGA,001654.00,4738.46955,N,12219.67848,W,2,12,0.87,4.8,M,-18.8,M,,0000*76
$GNRMC,001709.00,A,4738.46893,N,12219.67809,W,0.036,,081220,,,D*7B
$GNGGA,001709.00,4738.46893,N,12219.67809,W,2,12,0.83,6.3,M,-18.8,M,,0000*7C
$GNRMC,001724.00,A,4738.46839,N,12219.67835,W,0.042,,081220,,,D*78
$GNGGA,001724.00,4738.46839,N,12219.67835,W,2,12,0.72,7.6,M,-18.8,M,,0000*76
$GNRMC,001739.00,A,4738.46833,N,12219.67912,W,0.076,,081220,,,D*7D
$GNGGA,001739.00,4738.46833,N,12219.67912,W,2,12,0.81,6.4,M,-18.8,M,,0000*7B
$GNRMC,001754.00,A,4738.46880,N,12219.67998,W,0.105,,081220,,,D*79
$GNGGA,001754.00,4738.46880,N,12219.67998,W,2,12,0.81,4.1,M,-18.8,M,,0000*7D
$GNRMC,001809.00,A,4738.46896,N,12219.68013,W,0.067,,081220,,,D*79
$GNGGA,001809.00,4738.46896,N,12219.68013,W,2,12,0.83,3.3,M,-18.8,M,,0000*7F
$GNRMC,001824.00,A,4738.46889,N,12219.67939,W,0.027,,081220,,,D*72
$GNGGA,001824.00,4738.46889,N,12219.67939,W,2,12,0.81,3.2,M,-18.8,M,,0000*73
$GNRMC,001839.00,A,4738.46821,N,12219.67902,W,0.057,,081220,,,D*73
$GNGGA,001839.00,4738.46821,N,12219.67902,W,2,12,0.81,4.8,M,-18.8,M,,0000*78
$GNRMC,001854.00,A,4738.46756,N,12219.67917,W,0.063,,081220,,,D*74
$GNGGA,001854.00,4738.46756,N,12219.67917,W,2,12,0.85,6.5,M,-18.8,M,,0000*73
$GNRMC,001909.00,A,4738.46723,N,12219.68008,W,0.037,,081220,,,D*76
$GNGGA,001909.00,4738.46723,N,12219.68008,W,2,12,0.81,6.7,M,-18.8,M,,0000*76
$GNRMC,001924.00,A,4738.46738,N,12219.68079,W,0.017,,081220,,,D*77
$GNGGA,001924.00,4738.46738,N,12219.68079,W,2,12,0.81,5.4,M,-18.8,M,,0000*75
$GNRMC,001939.00,A,4738.46736,N,12219.68091,W,0.055,,081220,,,D*75
$GNGGA,001939.00,4738.46736,N,12219.68091,W,2,12,0.81,4.6,M,-18.8,M,,0000*72
$GNRMC,001954.00,A,4738.46744,N,12219.68071,W,0.031,,081220,,,D*77
$GNGGA,001954.00,4738.46744,N,12219.68071,W,2,12,0.72,3.9,M,-18.8,M,,0000*76
$GNRMC,002009.00,A,4738.46757,N,12219.67994,W,0.065,,081220,,,D*7B
$GNGGA,002009.00,4738.46757,N,12219.67994,W,2,12,0.72,4.1,M,-18.8,M,,0000*74
$GNRMC,002024.00,A,4738.46770,N,12219.67958,W,0.051,,081220,,,D*76
$GNGGA,002024.00,4738.46770,N,12219.67958,W,2,12,0.81,3.6,M,-18.8,M,,0000*72
$GNRMC,002039.00,A,4738.46808,N,12219.67974,W,0.045,,081220,,,D*71
$GNGGA,002039.00,4738.46808,N,12219.67974,W,2,12,0.81,3.9,M,-18.8,M,,0000*7F
$GNRMC,002054.00,A,4738.46817,N,12219.67970,W,0.043,,081220,,,D*76
$GNGGA,002054.00,4738.46817,N,12219.67970,W,2,12,0.81,4.6,M,-18.8,M,,0000*76
$GNRMC,002110.00,A,4738.46779,N,12219.67966,W,0.043,,081220,,,D*77
$GNGGA,002110.00,4738.46779,N,12219.67966,W,2,12,0.72,9.2,M,-18.8,M,,0000*72
$GNRMC,002125.00,A,4738.46762,N,12219.67971,W,0.035,,081220,,,D*7C
$GNGGA,002125.00,4738.46762,N,12219.67971,W,2,12,0.72,13.7,M,-18.8,M,,0000*46
$GNRMC,002140.00,A,4738.46809,N,12219.67929,W,0.012,,081220,,,D*75
$GNGGA,002140.00,4738.46809,N,12219.67929,W,2,12,0.72,14.4,M,-18.8,M,,0000*4E
$GNRMC,002155.00,A,4738.46876,N,12219.67937,W,0.037,,081220,,,D*71
$GNGGA,002155.00,4738.46876,N,12219.67937,W,2,12,0.84,13.2,M,-18.8,M,,0000*45
$GNRMC,002210.00,A,4738.46982,N,12219.67998,W,0.057,,081220,,,D*7A
$GNGGA,002210.00,4738.46982,N,12219.67998,W,2,12,0.72,10.6,M,-18.8,M,,0000*46
$GNRMC,002225.00,A,4738.47032,N,12219.68015,W,0.116,,081220,,,D*78
$GNGGA,002225.00,4738.47032,N,12219.68015,W,2,12,0.75,8.3,M,-18.8,M,,0000*7B
$GNRMC,002240.00,A,4738.47042,N,12219.67946,W,0.086,,081220,,,D*74
$GNGGA,002240.00,4738.47042,N,12219.67946,W,2,12,0.76,7.7,M,-18.8,M,,0000*77
$GNRMC,002255.00,A,4738.47025,N,12219.67849,W,0.058,,081220,,,D*7C
$GNGGA,002255.00,4738.47025,N,12219.67849,W,2,12,0.76,8.3,M,-18.8,M,,0000*77
$GNRMC,002310.00,A,4738.46969,N,12219.67758,W,0.045,,081220,,,D*7F
$GNGGA,002310.00,4738.46969,N,12219.67758,W,2,12,0.72,9.9,M,-18.8,M,,0000*77
$GNRMC,002325.00,A,4738.46978,N,12219.67753,W,0.025,,081220,,,D*74
$GNGGA,002325.00,4738.46978,N,12219.67753,W,2,12,0.72,9.5,M,-18.8,M,,0000*76
$GNRMC,002340.00,A,4738.47003,N,12219.67786,W,0.042,,081220,,,D*7A
$GNGGA,002340.00,4738.47003,N,12219.67786,W,2,12,0.72,9.1,M,-18.8,M,,0000*7D
$GNRMC,002355.00,A,4738.47001,N,12219.67820,W,0.101,,081220,,,D*79
$GNGGA,002355.00,4738.47001,N,12219.67820,W,2,12,0.81,9.3,M,-18.8,M,,0000*76
$GNRMC,002410.00,A,4738.46970,N,12219.67844,W,0.038,,081220,,,D*78
$GNGGA,002410.00,4738.46970,N,12219.67844,W,2,12,0.83,9.4,M,-18.8,M,,0000*79
$GNRMC,002425.00,A,4738.46972,N,12219.67864,W,0.004,,081220,,,D*71
$GNGGA,002425.00,4738.46972,N,12219.67864,W,2,12,0.83,7.4,M,-18.8,M,,0000*71
$GNRMC,002440.00,A,4738.46947,N,12219.67886,W,0.043,,081220,,,D*7B
$GNGGA,002440.00,4738.46947,N,12219.67886,W,2,12,0.83,6.0,M,-18.8,M,,0000*7D
$GNRMC,002455.00,A,4738.46943,N,12219.67915,W,0.062,,081220,,,D*73
$GNGGA,002455.00,4738.46943,N,12219.67915,W,2,12,0.83,4.8,M,-18.8,M,,0000*7C
$GNRMC,002510.00,A,4738.46876,N,12219.67898,W,0.052,,081220,,,D*73
$GNGGA,002510.00,4738.46876,N,12219.67898,W,2,12,0.83,5.4,M,-18.8,M,,0000*72
$GNRMC,002525.00,A,4738.46810,N,12219.67877,W,0.084,,081220,,,D*7F
$GNGGA,002525.00,4738.46810,N,12219.67877,W,2,12,0.83,6.8,M,-18.8,M,,0000*7A
$GNRMC,002540.00,A,4738.46795,N,12219.67843,W,0.047,,081220,,,D*76
$GNGGA,002540.00,4738.46795,N,12219.67843,W,2,12,0.81,6.0,M,-18.8,M,,0000*76
$GNRMC,002555.00,A,4738.46855,N,12219.67824,W,0.086,,081220,,,D*7D
$GNGGA,002555.00,4738.46855,N,12219.67824,W,2,12,0.89,3.1,M,-18.8,M,,0000*7C
$GNRMC,002611.00,A,4738.46832,N,12219.67830,W,0.072,,081220,,,D*71
$GNGGA,002611.00,4738.46832,N,12219.67830,W,2,12,0.81,3.7,M,-18.8,M,,0000*75
$GNRMC,002626.00,A,4738.46771,N,12219.67800,W,0.079,,081220,,,D*75
$GNGGA,002626.00,4738.46771,N,12219.67800,W,2,12,0.81,6.0,M,-18.8,M,,0000*78
$GNRMC,00